[
  {
    "name": "Paris",
    "country": "FR",
    "lat": "48.8534",
    "lon": "2.3488"
  },
  {
    "name": "New York",
    "country": "US",
    "lat": "40.779897",
    "lon": "-73.968565"
  },
  {
    "name": "Sydney",
    "country": "AU",
    "lat": "-33.867487",
    "lon": "151.206990"
  },
  {
    "name": "Beijing",
    "country": "CN",
    "lat": "39.9075",
    "lon": "116.3972"
  },
  {
    "name": "Delhi",
    "country": "IN",
    "lat": "28.6667",
    "lon": "77.2167"
  }
]
